Time arm state flighttstate height roll pitch yaw heightM rollM pitchM Yawm heights Rolla pitchA yawn heights
24.75 2 0 100.00000 -0.34500 0.09000 0.00000 542.3 58.9 0.0 0.0 0.00000 0.19230 -0.07542 -25.11291 -2.918 
49.53 2 0 100.00000 -0.34500 0.07500 0.00000 542.7 -36.0 0.0 0.0 0.00000 0.17543 0.12662 14.82459 -3.015 
74.65 2 0 100.00000 -0.34500 0.09000 0.00000 543.1 -54.2 0.0 0.0 0.00000 0.14870 -0.00922 24.32458 -3.123 
99.46 2 0 100.00000 -0.34500 0.10500 0.00000 543.3 36.0 0.0 0.0 0.00000 0.17402 -0.02400 -18.42541 -3.168 
124.65 2 0 100.00000 -0.34500 0.09000 0.00000 543.8 27.4 0.0 0.0 0.00000 0.22903 0.19093 -56.92541 -3.287 
149.44 2 0 100.00000 -0.34500 0.09000 0.00000 543.7 -54.1 0.0 0.0 0.00000 0.26992 0.11893 35.13708 -3.268 
174.62 2 0 100.00000 -0.34500 0.09000 0.00000 543.5 -33.6 0.0 0.0 0.00000 0.25738 0.00981 16.01208 -3.225 
199.45 2 0 100.00000 -0.34500 0.07500 0.00000 543.4 62.1 0.0 0.0 0.00000 0.26944 0.11352 -59.67540 -3.184 
224.68 2 0 100.00000 -0.34500 0.06000 0.00000 543.4 -27.9 0.0 0.0 0.00000 0.31934 0.19209 24.88709 -3.189 
249.41 2 0 100.00000 -0.34500 0.09000 0.15500 543.7 -61.7 0.0 0.0 0.00000 0.25370 0.02012 6.94958 -3.268 
274.66 2 0 100.00000 -0.34500 0.09000 0.00000 543.6 67.5 0.0 0.0 0.00000 0.23588 -0.04866 -27.11290 -3.244 
299.41 2 0 100.00000 -0.34500 0.07500 -0.15500 543.5 -19.7 0.0 0.0 0.00000 0.31966 0.00264 10.13709 -3.226 
324.63 2 0 100.00000 -0.34500 0.09000 0.00000 543.2 -71.0 0.0 0.0 0.00000 0.25087 -0.14750 13.38708 -3.132 
349.45 2 0 100.00000 -0.34500 0.09000 0.00000 542.8 55.9 0.0 0.0 0.00000 0.19246 -0.18896 -8.36290 -3.054 
374.65 2 0 100.00000 -0.34500 0.06000 0.00000 542.5 -3.7 0.0 0.0 0.00000 0.22603 -0.04046 -8.48791 -2.966 
399.45 2 0 100.00000 -0.34500 0.09000 0.00000 542.1 -66.1 0.0 0.0 0.00000 0.22270 -0.17707 51.51208 -2.877 
424.65 2 0 100.00000 -0.34500 0.09000 0.00000 541.9 41.8 0.0 0.0 0.00000 0.14996 -0.20831 2.44959 -2.839 
449.41 2 0 100.00000 -0.34500 0.09000 0.00000 541.8 5.4 0.0 0.0 0.00000 0.22226 0.00331 -31.05041 -2.801 
474.63 2 0 100.00000 -0.11500 0.09000 0.00000 541.8 -62.6 0.0 0.0 0.00000 0.19303 -0.17934 43.88708 -2.820 
499.46 2 0 100.00000 -0.34500 0.09000 0.00000 541.5 60.9 0.0 0.0 0.00000 0.11144 -0.08783 -26.36290 -2.741 
524.63 2 0 100.00000 -0.34500 0.09000 0.00000 541.6 -20.7 0.0 0.0 0.00000 0.18475 0.06100 -4.36291 -2.756 
549.46 2 0 100.00000 -0.34500 0.09000 0.00000 541.6 -38.7 0.0 0.0 0.00000 0.16054 -0.09778 18.51208 -2.766 
574.64 2 0 100.00000 -0.34500 0.09000 -0.15500 541.7 68.0 0.0 0.0 0.00000 0.19988 0.01360 -33.11290 -2.783 
599.47 2 0 100.00000 -0.34500 0.09000 -0.15500 542.0 -42.6 0.0 0.0 0.00000 0.32152 0.08312 13.51208 -2.849 
624.64 2 0 100.00000 -0.34500 0.09000 -0.15500 542.3 -26.2 0.0 0.0 0.00000 0.24711 -0.05408 -4.61291 -2.917 
649.42 2 0 100.00000 -0.34500 0.09000 0.00000 542.0 60.6 0.0 0.0 0.00000 0.27204 0.03955 -27.05040 -2.866 
674.65 2 0 100.00000 -0.34500 0.07500 0.00000 541.9 -59.0 0.0 0.0 0.00000 0.37023 -0.01896 42.44958 -2.823 
699.43 2 0 100.00000 -0.34500 0.09000 0.46500 541.6 2.8 0.0 0.0 0.00000 0.31897 -0.11908 -5.80041 -2.760 
724.43 2 0 100.00000 -0.34500 0.10500 0.00000 541.4 18.6 0.0 0.0 0.00000 0.38117 0.06482 -24.30041 -2.723 
749.43 2 0 100.00000 -0.34500 0.09000 0.00000 541.5 -66.7 0.0 0.0 0.00000 0.37309 -0.13309 45.38708 -2.743 
774.63 2 0 100.00000 -0.34500 0.07500 -0.15500 541.5 56.5 0.0 0.0 0.00000 0.32837 -0.10416 -28.42541 -2.728 
799.45 2 0 100.00000 -0.34500 0.07500 0.00000 541.6 -45.1 0.0 0.0 0.00000 0.43074 -0.03759 15.94958 -2.758 
824.65 2 0 100.00000 -0.34500 0.09000 0.00000 541.6 5.1 0.0 0.0 0.00000 0.29355 -0.15863 -20.30041 -2.754 
849.46 2 0 100.00000 -0.11500 0.09000 0.00000 541.5 3.5 0.0 0.0 0.00000 0.30752 0.06181 -2.73791 -2.750 
874.66 2 0 100.00000 -0.34500 0.09000 0.00000 541.4 -63.5 0.0 0.0 0.00000 0.31315 -0.12227 9.88708 -2.719 
899.42 2 0 100.00000 -0.34500 0.09000 -0.15500 541.7 59.2 0.0 0.0 0.00000 0.24420 0.03872 -52.48790 -2.777 
924.64 2 0 100.00000 -0.34500 0.09000 0.00000 542.2 -59.6 0.0 0.0 0.00000 0.31708 0.03285 43.19958 -2.902 
949.42 2 0 100.00000 -0.34500 0.07500 0.00000 541.9 45.2 0.0 0.0 0.00000 0.21821 0.10900 -31.86291 -2.845 
974.63 2 0 100.00000 -0.34500 0.09000 0.00000 542.5 -35.2 0.0 0.0 0.00000 0.29690 0.04794 31.19958 -2.974 
999.47 2 0 100.00000 -0.34500 0.07500 0.00000 542.5 55.5 0.0 0.0 0.00000 0.21862 -0.02224 -21.80041 -2.981 
1024.63 2 0 100.00000 -0.34500 0.09000 0.00000 542.6 -38.7 0.0 0.0 0.00000 0.32584 0.17566 19.44958 -3.003 
1049.44 2 0 100.00000 -0.34500 0.09000 0.00000 543.0 3.8 0.0 0.0 0.00000 0.25509 -0.08973 2.51209 -3.104 
1074.63 2 0 100.00000 -0.34500 0.09000 0.00000 544.0 -4.5 0.0 0.0 0.00000 0.31978 0.05324 8.01209 -3.335 
1099.45 2 0 100.00000 -0.34500 0.09000 0.00000 544.0 -14.1 0.0 0.0 0.00000 0.30165 -0.06935 16.51209 -3.330 
1124.66 2 0 100.00000 -0.34500 0.09000 0.00000 544.5 47.6 0.0 0.0 0.00000 0.30141 0.08329 -28.80041 -3.462 
1149.43 2 0 100.00000 -0.34500 0.09000 0.00000 545.3 -78.3 0.0 0.0 0.00000 0.29297 -0.00514 28.51208 -3.654 
1174.64 2 0 100.00000 -0.34500 0.09000 0.00000 545.9 50.9 0.0 0.0 0.00000 0.20980 0.09222 -32.30040 -3.793 
1199.43 2 0 100.00000 -0.57500 0.09000 0.00000 546.3 -65.6 0.0 0.0 0.00000 0.29745 -0.01618 31.94958 -3.887 
1224.67 2 0 100.00000 -0.34500 0.09000 0.00000 546.9 43.6 0.0 0.0 0.00000 0.24112 0.02981 -28.48791 -4.020 
1249.44 2 0 100.00000 -0.34500 0.09000 0.00000 547.3 -51.5 0.0 0.0 0.00000 0.30859 -0.04959 25.38708 -4.107 
1274.62 2 0 100.00000 -0.34500 0.09000 0.00000 547.7 52.9 0.0 0.0 0.00000 0.22804 -0.00151 -46.23790 -4.219 
1299.57 2 0 100.00000 -0.34500 0.09000 0.00000 547.9 -1.3 0.0 0.0 0.00000 0.43663 0.26628 -13.30041 -4.265 
1324.77 2 0 100.00000 -0.34500 0.09000 0.00000 548.3 -85.0 0.0 0.0 0.00000 0.40650 0.15234 39.94958 -4.361 
1349.48 2 0 100.00000 -0.34500 0.07500 0.00000 548.7 57.5 0.0 0.0 0.00000 0.34223 0.02535 13.57460 -4.459 
1374.65 2 0 100.00000 -0.34500 0.09000 0.00000 548.6 36.3 0.0 0.0 0.00000 0.38494 0.16562 -41.17541 -4.434 
1399.26 2 0 100.00000 -0.34500 0.09000 0.00000 548.5 -60.7 0.0 0.0 0.00000 0.43443 0.18739 45.19958 -4.416 
1424.63 2 0 100.00000 -0.34500 0.10500 0.00000 548.3 -17.6 0.0 0.0 0.00000 0.33115 -0.03909 -2.92541 -4.369 
1449.42 2 0 100.00000 -0.34500 0.09000 0.00000 548.3 49.5 0.0 0.0 0.00000 0.33928 0.05924 -62.67540 -4.356 
1474.63 2 0 100.00000 -0.34500 0.10500 -0.15500 548.2 -31.6 0.0 0.0 0.00000 0.43302 0.14144 21.88709 -4.336 
1499.44 2 0 100.00000 5.98000 0.09000 0.00000 547.8 -5.8 0.0 0.0 0.00000 0.40927 0.04930 25.01208 -4.234 
1524.68 2 0 100.00000 8.97000 0.09000 0.00000 547.8 90.6 0.0 0.0 0.00000 0.43990 0.01807 8.63709 -4.232 
1549.42 2 0 100.00000 11.27000 0.07500 0.00000 547.2 88.6 0.0 0.0 0.00000 0.61274 0.09511 -14.23791 -4.105 
1574.65 2 0 100.00000 17.25000 0.07500 0.00000 546.6 91.5 0.0 0.0 0.00000 0.88912 0.07424 14.13708 -3.964 
1599.45 2 0 100.00000 20.00000 0.09000 0.00000 546.2 110.4 0.0 0.0 0.00000 1.21336 0.13908 -2.80042 -3.860 
1624.63 2 0 100.00000 20.00000 0.07500 0.00000 546.0 84.3 0.0 0.0 0.00000 1.79703 0.05462 1.63708 -3.818 
1649.42 1 0 100.00000 20.00000 0.09000 0.00000 545.6 63.8 0.0 0.0 0.00000 2.61960 0.07281 -9.11292 -3.713 
1674.68 2 0 100.00000 20.00000 0.07500 0.00000 545.1 -19.6 0.0 0.0 0.00000 3.63431 0.09024 -13.86293 -3.604 
1699.47 2 0 100.00000 20.00000 0.07500 0.00000 544.7 -8.9 0.0 0.0 0.00000 4.81556 0.09864 -28.80043 -3.509 
1724.65 2 0 100.00000 20.00000 0.07500 0.00000 544.4 -12.3 0.0 0.0 0.00000 6.19147 0.17428 22.69958 -3.419 
1749.46 2 0 100.00000 20.00000 0.09000 0.00000 544.4 -73.9 0.0 0.0 0.00000 7.70665 -0.12558 -18.67543 -3.438 
1774.66 2 0 100.00000 20.00000 0.09000 0.00000 544.2 -76.9 0.0 0.0 0.00000 9.04157 -0.04308 -63.23793 -3.379 
1799.46 2 0 100.00000 20.00000 0.07500 0.00000 543.9 -42.3 0.0 0.0 0.00000 10.42758 -0.02828 33.44957 -3.306 
1824.67 2 0 100.00000 20.00000 0.07500 0.00000 543.8 -46.8 0.0 0.0 0.00000 11.71868 -0.03936 6.01208 -3.285 
1849.47 2 0 100.00000 20.00000 0.09000 0.00000 543.8 -129.9 0.0 0.0 0.00000 12.88396 -0.02280 -11.42543 -3.296 
1874.67 2 0 100.00000 20.00000 0.07500 0.00000 543.7 9.4 0.0 0.0 0.00000 13.84852 0.02738 8.38708 -3.262 
1899.24 2 0 100.00000 20.00000 0.09000 0.00000 543.4 -53.7 0.0 0.0 0.00000 14.74995 -0.21150 6.88708 -3.189 
1924.67 2 0 100.00000 20.00000 0.09000 0.00000 543.2 -24.5 0.0 0.0 0.00000 15.25895 -0.04306 -18.42542 -3.133 
1949.46 2 0 100.00000 20.00000 0.09000 0.00000 543.5 -4.8 0.0 0.0 0.00000 15.80581 -0.08450 9.38708 -3.216 
1974.68 2 0 100.00000 20.00000 0.09000 0.00000 543.6 15.3 0.0 0.0 0.00000 16.09159 -0.00507 -0.17541 -3.240 
1999.46 2 0 100.00000 20.00000 0.07500 0.00000 543.5 -4.1 0.0 0.0 0.00000 16.36773 -0.00882 -4.61292 -3.203 
2024.65 2 0 100.00000 20.00000 0.09000 0.00000 543.6 27.7 0.0 0.0 0.00000 16.52730 -0.08442 -4.92541 -3.240 
2049.42 2 0 100.00000 20.00000 0.09000 0.00000 543.3 30.3 0.0 0.0 0.00000 16.61199 -0.04696 1.38709 -3.162 
2074.64 2 0 100.00000 20.00000 0.10500 -0.15500 543.1 26.1 0.0 0.0 0.00000 16.71646 -0.10826 -2.30041 -3.123 
2099.43 2 0 100.00000 20.00000 0.06000 0.00000 543.1 10.6 0.0 0.0 0.00000 16.75853 -0.04731 1.63709 -3.125 
2124.65 2 0 100.00000 20.00000 0.09000 0.00000 542.9 16.9 0.0 0.0 0.00000 16.82825 -0.05148 -2.11291 -3.082 
2149.42 2 0 100.00000 20.00000 0.09000 0.00000 542.7 13.2 0.0 0.0 0.00000 16.89973 -0.06422 2.76209 -3.030 
2174.63 2 0 100.00000 20.00000 0.09000 0.00000 542.5 -1.8 0.0 0.0 0.00000 17.20061 0.00885 -0.55041 -2.988 
2199.42 1 0 100.00000 20.00000 0.09000 0.00000 542.5 -2.1 0.0 0.0 0.00000 17.42035 0.06774 -8.30041 -2.968 
2224.68 1 0 100.00000 20.00000 0.09000 0.00000 542.8 -53.4 0.0 0.0 0.00000 17.67513 0.02609 3.07458 -3.038 
2249.45 2 0 100.00000 20.00000 0.09000 0.00000 543.2 -2.9 0.0 0.0 0.00000 17.95921 0.03178 -14.30041 -3.151 
2274.64 2 0 100.00000 20.00000 0.09000 0.00000 543.6 -12.4 0.0 0.0 0.00000 18.25259 0.04816 -20.17542 -3.249 
2299.47 2 0 100.00000 20.00000 0.09000 0.00000 543.7 -23.6 0.0 0.0 0.00000 18.56099 0.06838 53.88708 -3.262 
2324.65 2 0 100.00000 20.00000 0.07500 0.00000 543.9 8.6 0.0 0.0 0.00000 18.79339 0.08101 -33.80041 -3.320 
2349.47 2 0 100.00000 20.00000 0.09000 0.00000 544.3 -56.9 0.0 0.0 0.00000 19.08518 0.10377 40.63708 -3.415 
2374.65 2 0 100.00000 20.00000 0.07500 0.00000 544.5 11.7 0.0 0.0 0.00000 19.21216 0.10939 -8.61291 -3.447 
2399.43 2 0 100.00000 20.00000 0.09000 0.00000 544.4 -26.5 0.0 0.0 0.00000 19.29701 0.04511 0.13708 -3.423 
2424.64 2 0 100.00000 20.00000 0.09000 0.00000 544.8 12.1 0.0 0.0 0.00000 19.44128 0.20207 -1.42541 -3.526 
2449.43 2 0 100.00000 20.00000 0.07500 0.00000 545.1 13.1 0.0 0.0 0.00000 19.41396 0.10999 1.44959 -3.592 
2474.79 2 0 100.00000 20.00000 0.09000 0.00000 545.5 19.0 0.0 0.0 0.00000 19.38586 0.13791 -4.23791 -3.701 
2499.51 2 0 100.00000 20.00000 0.09000 0.00000 545.7 23.6 0.0 0.0 0.00000 19.41239 0.29014 -18.11291 -3.745 
2524.68 2 0 100.00000 20.00000 0.09000 0.00000 545.4 -33.3 0.0 0.0 0.00000 19.37918 0.15499 28.01208 -3.671 
2549.44 2 0 100.00000 20.00000 0.07500 0.00000 545.3 -19.9 0.0 0.0 0.00000 19.27430 0.15518 3.44959 -3.632 
2574.67 2 0 100.00000 20.00000 0.09000 0.00000 545.1 67.6 0.0 0.0 0.00000 19.29666 0.17162 -17.55041 -3.589 
2599.46 2 0 100.00000 20.00000 0.09000 0.00000 544.7 -19.0 0.0 0.0 0.00000 19.34053 0.13325 9.82459 -3.511 
2624.66 1 0 100.00000 20.00000 0.09000 0.15500 544.0 -7.0 0.0 0.0 0.00000 19.27187 0.06383 6.07459 -3.328 
2649.42 2 0 100.00000 20.00000 0.09000 0.00000 543.5 -7.3 0.0 0.0 0.00000 19.38656 0.12342 -23.80041 -3.214 
2674.65 2 0 100.00000 20.00000 0.07500 0.00000 542.9 -10.5 0.0 0.0 0.00000 19.43928 0.23602 -37.11291 -3.076 
2699.46 2 0 100.00000 20.00000 0.06000 0.00000 542.8 18.6 0.0 0.0 0.00000 19.55474 0.10010 41.38709 -3.058 
2724.68 2 0 100.00000 20.00000 0.07500 0.00000 542.4 -50.7 0.0 0.0 0.00000 19.65417 0.04009 -4.42542 -2.944 
2749.42 2 0 100.00000 20.00000 0.09000 0.00000 541.6 17.0 0.0 0.0 0.00000 19.63076 0.01292 20.13709 -2.768 
2774.68 2 0 100.00000 20.00000 0.09000 0.00000 541.8 3.3 0.0 0.0 0.00000 19.65390 0.01811 19.94959 -2.804 
2799.43 2 0 100.00000 20.00000 0.09000 0.00000 541.3 1.3 0.0 0.0 0.00000 19.59731 0.03502 -17.42541 -2.680 
2824.64 2 0 100.00000 20.00000 0.09000 0.00000 541.1 8.3 0.0 0.0 0.00000 19.67306 0.03485 -1.80041 -2.650 
2849.43 2 0 100.00000 20.00000 0.09000 0.00000 540.9 -7.3 0.0 0.0 0.00000 19.67933 -0.04262 16.44959 -2.598 
2874.67 2 0 100.00000 20.00000 0.09000 0.00000 540.7 21.8 0.0 0.0 0.00000 19.59555 -0.01972 -2.05041 -2.558 
2899.44 2 0 100.00000 20.00000 0.07500 0.15500 540.8 -8.0 0.0 0.0 0.00000 19.63817 0.08307 7.32459 -2.572 
2924.64 2 0 100.00000 20.00000 0.09000 0.00000 540.3 -2.0 0.0 0.0 0.00000 19.54777 -0.04408 0.94959 -2.455 
2949.42 2 0 100.00000 20.00000 0.09000 0.00000 540.1 29.7 0.0 0.0 0.00000 19.59478 0.02827 -9.17541 -2.397 
2974.65 2 0 100.00000 20.00000 0.09000 0.00000 539.8 -5.2 0.0 0.0 0.00000 19.61275 0.06325 9.57459 -2.330 
2999.42 2 0 100.00000 20.00000 0.09000 0.00000 539.7 14.5 0.0 0.0 0.00000 19.55754 0.01123 -9.61291 -2.303 
3024.67 2 0 100.00000 20.00000 0.09000 0.00000 539.4 21.8 0.0 0.0 0.00000 19.59384 0.13650 -16.92541 -2.240 
3049.46 2 0 100.00000 20.00000 0.09000 0.00000 539.0 -38.7 0.0 0.0 0.00000 19.59373 0.07565 26.13708 -2.147 
3074.64 2 0 100.00000 20.00000 0.07500 0.00000 538.7 52.5 0.0 0.0 0.00000 19.53647 0.05279 -34.17541 -2.071 
3099.43 2 0 100.00000 20.00000 0.09000 0.00000 538.3 -39.1 0.0 0.0 0.00000 19.59242 0.12544 35.88708 -1.981 
3124.64 2 0 100.00000 20.00000 0.09000 0.00000 538.3 52.0 0.0 0.0 0.00000 19.55248 0.02788 -35.17541 -1.981 
3149.45 2 0 100.00000 20.00000 0.09000 0.00000 538.2 -20.5 0.0 0.0 0.00000 19.60847 0.19551 -1.55041 -1.961 
3174.64 2 0 100.00000 20.00000 0.09000 0.00000 538.0 23.2 0.0 0.0 0.00000 19.57011 0.04090 -1.86291 -1.911 
3199.47 2 0 100.00000 20.00000 0.09000 0.00000 538.1 10.5 0.0 0.0 0.00000 19.63873 0.11447 -5.11291 -1.920 
3224.66 2 0 100.00000 20.00000 0.07500 0.15500 538.0 -31.5 0.0 0.0 0.00000 19.62108 0.03787 29.63708 -1.912 
3249.43 2 0 100.00000 20.00000 0.09000 0.00000 537.8 44.7 0.0 0.0 0.00000 19.65419 0.06369 -27.17541 -1.859 
3274.65 2 0 100.00000 20.00000 0.07500 0.00000 537.5 -28.1 0.0 0.0 0.00000 19.66446 0.04562 9.38709 -1.791 
3299.46 2 0 100.00000 20.00000 0.09000 0.00000 537.6 59.9 0.0 0.0 0.00000 19.65016 0.02693 -14.11291 -1.810 
3324.67 2 0 100.00000 20.00000 0.09000 0.00000 537.5 -35.9 0.0 0.0 0.00000 19.69585 0.02465 13.44958 -1.780 
3349.46 2 0 100.00000 20.00000 0.09000 0.00000 537.7 26.5 0.0 0.0 0.00000 19.63732 0.06390 -22.05041 -1.831 
3374.64 2 0 100.00000 20.00000 0.07500 0.00000 538.5 -19.8 0.0 0.0 0.00000 19.73871 0.17503 12.76209 -2.012 
3399.43 2 0 100.00000 20.00000 0.09000 0.00000 538.8 19.1 0.0 0.0 0.00000 19.68429 0.06882 -6.92541 -2.100 
3424.65 2 0 100.00000 20.00000 0.07500 0.00000 538.7 -17.4 0.0 0.0 0.00000 19.74454 0.21526 3.63709 -2.077 
3449.45 2 0 100.00000 20.00000 0.09000 0.00000 538.9 -1.0 0.0 0.0 0.00000 19.64918 0.15103 -14.30041 -2.111 
3474.68 2 0 100.00000 20.00000 0.09000 0.00000 539.1 -1.9 0.0 0.0 0.00000 19.72363 0.34270 17.88709 -2.177 
3499.44 2 0 100.00000 20.00000 0.09000 0.00000 539.2 3.3 0.0 0.0 0.00000 19.71590 0.18596 -25.61291 -2.185 
3524.64 2 0 100.00000 20.00000 0.09000 -0.15500 539.4 2.7 0.0 0.0 0.00000 19.76128 0.35740 16.82459 -2.226 
3549.43 2 0 100.00000 20.00000 0.09000 0.00000 539.6 40.7 0.0 0.0 0.00000 19.76628 0.18438 -15.42541 -2.291 
3574.69 2 0 100.00000 20.00000 0.09000 0.00000 539.9 -28.6 0.0 0.0 0.00000 19.77962 0.38565 2.76209 -2.347 
3599.43 2 0 100.00000 20.00000 0.09000 0.00000 539.9 48.4 0.0 0.0 0.00000 19.72486 0.26367 -0.55041 -2.369 
3624.64 2 0 100.00000 20.00000 0.07500 0.00000 540.0 -37.2 0.0 0.0 0.00000 19.83295 0.35032 15.38708 -2.380 
3649.47 2 0 100.00000 20.00000 0.09000 0.00000 540.0 40.7 0.0 0.0 0.00000 19.75052 0.37685 -20.86291 -2.382 
3674.69 3 0 100.00000 20.00000 0.09000 0.00000 540.3 -25.6 0.0 0.0 0.00000 19.80123 0.37928 25.76208 -2.442 
3699.56 2 0 100.00000 20.00000 0.09000 0.00000 540.5 -7.3 0.0 0.0 0.00000 19.81126 0.34683 21.32459 -2.506 
3724.75 2 0 100.00000 20.00000 0.09000 0.00000 540.8 48.0 0.0 0.0 0.00000 19.75124 0.61815 -16.80041 -2.575 
3749.49 2 0 100.00000 20.00000 0.09000 -0.15500 540.8 3.4 0.0 0.0 0.00000 19.85263 0.58233 -9.17541 -2.576 
3774.66 2 0 100.00000 18.28500 0.09000 0.00000 540.7 -32.3 0.0 0.0 0.00000 19.74756 0.53089 -13.80041 -2.546 
3799.45 2 0 100.00000 13.80000 0.09000 0.00000 540.4 -7.3 0.0 0.0 0.00000 19.73339 0.55172 -10.48791 -2.465 
3824.64 2 0 100.00000 11.61500 0.09000 0.00000 539.9 -86.7 0.0 0.0 0.00000 19.66005 0.63429 -2.17541 -2.358 
3849.46 2 0 100.00000 6.21000 0.09000 0.00000 539.6 -48.0 0.0 0.0 0.00000 19.47608 0.48635 15.38710 -2.284 
3874.65 2 0 100.00000 6.21000 0.09000 0.00000 539.3 -79.8 0.0 0.0 0.00000 19.23867 0.63801 -23.05041 -2.215 
3899.43 2 0 100.00000 2.64500 0.09000 0.00000 539.0 -54.2 0.0 0.0 0.00000 18.78730 0.48544 21.07460 -2.144 
3924.68 2 0 100.00000 -0.34500 0.09000 0.46500 539.1 -69.8 0.0 0.0 0.00000 18.30402 0.26990 -3.98790 -2.161 
3949.47 2 0 100.00000 -0.34500 0.09000 0.00000 538.3 -40.0 0.0 0.0 0.00000 17.44750 0.51175 -83.55040 -1.982 
3974.66 2 0 100.00000 -0.34500 0.09000 0.00000 537.8 -56.1 0.0 0.0 0.00000 16.61120 0.38738 27.26210 -1.867 
3999.45 2 0 100.00000 -0.34500 0.09000 0.00000 537.4 52.9 0.0 0.0 0.00000 15.31708 0.44322 0.13711 -1.773 
4024.67 2 0 100.00000 -0.34500 0.09000 0.00000 537.2 17.2 0.0 0.0 0.00000 14.18052 0.29379 38.82460 -1.725 
4049.44 2 0 100.00000 -0.11500 0.07500 0.00000 536.8 89.9 0.0 0.0 0.00000 12.76303 0.34381 -29.73789 -1.620 
4074.65 2 0 100.00000 -0.34500 0.07500 0.00000 536.5 11.3 0.0 0.0 0.00000 11.48342 0.39306 22.82460 -1.542 
4099.44 2 0 100.00000 -0.34500 0.09000 0.00000 536.2 61.9 0.0 0.0 0.00000 10.00830 0.22631 42.07460 -1.466 
4124.66 2 0 100.00000 -0.34500 0.09000 0.00000 536.3 118.8 0.0 0.0 0.00000 8.97752 0.09990 4.94961 -1.499 
4149.43 2 0 100.00000 -0.34500 0.07500 0.00000 536.1 -22.5 0.0 0.0 0.00000 7.88552 0.08328 7.44959 -1.454 
4174.65 2 0 100.00000 -0.34500 0.09000 0.00000 536.1 77.5 0.0 0.0 0.00000 6.85783 0.12864 20.19960 -1.460 
4199.46 2 0 100.00000 -0.34500 0.09000 0.00000 536.2 71.1 0.0 0.0 0.00000 6.10107 0.20298 -8.23790 -1.473 
4224.67 2 0 100.00000 -0.34500 0.09000 0.00000 536.1 -2.9 0.0 0.0 0.00000 5.51267 0.09731 -11.73791 -1.461 
4249.45 2 0 100.00000 -0.11500 0.09000 0.00000 535.9 -19.7 0.0 0.0 0.00000 5.04848 0.10139 -35.73791 -1.402 
4274.65 2 0 100.00000 -0.34500 0.09000 0.00000 535.5 0.8 0.0 0.0 0.00000 4.72413 0.18557 9.32459 -1.316 
4299.47 2 0 100.00000 -0.34500 0.09000 0.00000 535.8 -17.4 0.0 0.0 0.00000 4.58037 0.04177 17.26209 -1.385 
4324.68 2 0 100.00000 -0.34500 0.09000 0.00000 535.6 -67.4 0.0 0.0 0.00000 4.45588 0.13987 -22.23791 -1.341 
4349.43 2 0 100.00000 -0.34500 0.07500 0.00000 535.3 -31.0 0.0 0.0 0.00000 4.30595 0.23972 12.07459 -1.251 
4374.66 2 0 100.00000 -0.34500 0.09000 -0.15500 535.5 -46.7 0.0 0.0 0.00000 4.33731 0.15968 13.76209 -1.315 
4399.43 2 0 100.00000 -0.11500 0.07500 0.00000 535.3 -16.8 0.0 0.0 0.00000 4.22414 0.13561 -20.36291 -1.267 
4424.63 2 0 100.00000 -0.34500 0.09000 0.00000 535.4 -33.1 0.0 0.0 0.00000 4.22071 0.18873 8.13709 -1.288 
4449.45 2 0 100.00000 -0.34500 0.09000 0.00000 535.3 -39.9 0.0 0.0 0.00000 4.06403 0.12172 16.82459 -1.259 
4474.66 2 0 100.00000 -0.57500 0.07500 0.00000 535.3 20.2 0.0 0.0 0.00000 3.86646 0.16238 -32.67540 -1.273 
4499.44 2 0 100.00000 -0.34500 0.09000 0.00000 535.5 -30.4 0.0 0.0 0.00000 3.67966 0.14706 9.82459 -1.301 
4524.65 2 0 100.00000 -0.34500 0.09000 0.00000 535.4 -9.1 0.0 0.0 0.00000 3.33409 0.03071 0.44959 -1.289 
4549.42 2 0 100.00000 -0.34500 0.07500 0.00000 534.9 21.4 0.0 0.0 0.00000 3.00381 0.05273 -22.73791 -1.167 
4574.67 2 0 100.00000 -0.34500 0.09000 0.00000 534.8 -0.4 0.0 0.0 0.00000 2.74227 0.00036 28.57459 -1.146 
4599.48 2 0 100.00000 -0.34500 0.09000 0.00000 535.1 21.6 0.0 0.0 0.00000 2.43909 0.10050 -22.36291 -1.207 
4624.67 2 0 100.00000 -0.34500 0.09000 0.00000 535.4 -0.0 0.0 0.0 0.00000 2.11171 0.13957 13.01209 -1.279 
4649.42 2 0 100.00000 -0.34500 0.09000 0.00000 535.5 61.0 0.0 0.0 0.00000 1.91360 0.10190 -5.11290 -1.299 
4674.65 2 0 100.00000 -0.34500 0.09000 0.00000 535.8 -42.2 0.0 0.0 0.00000 1.71409 0.23351 16.94959 -1.382 
4699.45 2 0 100.00000 -0.34500 0.07500 0.00000 536.1 64.3 0.0 0.0 0.00000 1.46753 0.08230 1.32460 -1.451 
4724.67 2 0 100.00000 -0.34500 0.09000 0.00000 536.5 -57.4 0.0 0.0 0.00000 1.40779 0.17823 2.82458 -1.536 
4749.43 2 0 100.00000 -0.57500 0.09000 0.00000 537.1 62.4 0.0 0.0 0.00000 1.16001 0.06247 -9.23790 -1.689 
4774.65 2 0 100.00000 -0.34500 0.07500 0.00000 537.4 -38.0 0.0 0.0 0.00000 1.19110 0.14101 29.26209 -1.759 
4799.44 2 0 100.00000 -0.34500 0.09000 0.00000 537.9 11.8 0.0 0.0 0.00000 1.03088 0.18094 -26.05041 -1.870 
4824.63 2 0 100.00000 -0.34500 0.09000 0.00000 538.2 -18.4 0.0 0.0 0.00000 1.04605 0.20498 22.69959 -1.961 
4849.43 2 0 100.00000 -0.34500 0.09000 0.00000 538.4 3.5 0.0 0.0 0.00000 0.93240 0.03768 -29.17541 -1.994 
4874.67 2 0 100.00000 -0.34500 0.09000 0.00000 538.4 -28.9 0.0 0.0 0.00000 0.94105 0.13970 30.51209 -1.991 
4899.43 2 0 100.00000 -0.34500 0.09000 0.00000 538.7 9.6 0.0 0.0 0.00000 0.85500 0.00525 -17.92541 -2.079 
4924.81 2 0 100.00000 -0.34500 0.09000 0.00000 539.1 30.9 0.0 0.0 0.00000 0.86917 0.23171 -3.80041 -2.176 
4949.51 2 0 100.00000 -0.34500 0.09000 0.00000 538.6 -5.2 0.0 0.0 0.00000 0.75316 0.20376 16.13709 -2.054 
4974.69 2 0 100.00000 -0.57500 0.07500 0.00000 538.5 -60.0 0.0 0.0 0.00000 0.65552 0.13601 37.94958 -2.017 
4999.44 2 0 100.00000 -1.38000 0.07500 0.00000 538.4 15.1 0.0 0.0 0.00000 0.48563 0.09453 3.88709 -2.007 
5024.63 2 0 100.00000 -9.31500 0.09000 0.00000 538.7 -9.6 0.0 0.0 0.00000 0.39761 0.15286 -36.73790 -2.067 
5049.47 2 0 100.00000 -17.48000 0.09000 0.00000 538.0 -151.1 0.0 0.0 0.00000 0.16062 0.25562 2.51209 -1.903 
5074.63 2 0 100.00000 -20.00000 0.06000 0.00000 537.5 -128.1 0.0 0.0 0.00000 -0.11951 -0.15188 33.38709 -1.791 
5099.42 2 0 100.00000 -20.00000 0.00000 0.00000 537.5 -126.2 0.0 0.0 0.00000 -0.67167 -0.09636 -68.98791 -1.788 
5124.67 2 0 100.00000 -20.00000 0.00000 0.00000 537.2 -41.8 0.0 0.0 0.00000 -1.35935 0.11898 20.94960 -1.716 
5149.47 2 0 100.00000 -20.00000 -0.07500 0.00000 536.9 -72.4 0.0 0.0 0.00000 -2.31422 0.08618 25.32460 -1.631 
5174.63 2 0 100.00000 -20.00000 -0.09000 0.00000 536.7 46.1 0.0 0.0 0.00000 -3.46140 -0.06796 0.82461 -1.604 
5199.42 2 0 100.00000 -20.00000 -0.10500 0.00000 536.5 51.1 0.0 0.0 0.00000 -4.72828 -0.17512 -35.05039 -1.541 
5224.68 2 0 100.00000 -20.00000 -0.10500 0.00000 536.0 -16.6 0.0 0.0 0.00000 -6.07529 -0.15117 27.51210 -1.439 
5249.47 2 0 100.00000 -20.00000 -0.12000 0.00000 536.0 58.9 0.0 0.0 0.00000 -7.60705 -0.06729 48.57461 -1.426 
5274.65 2 0 100.00000 -20.00000 -0.09000 0.00000 536.2 115.2 0.0 0.0 0.00000 -8.99289 -0.16957 12.19961 -1.478 
5299.44 2 0 100.00000 -20.00000 -0.09000 0.00000 536.0 -3.0 0.0 0.0 0.00000 -10.23579 -0.16485 -32.86290 -1.423 
5324.65 2 0 100.00000 -20.00000 -0.12000 0.00000 535.9 113.4 0.0 0.0 0.00000 -11.62635 0.02114 -31.67539 -1.393 
5349.44 2 0 100.00000 -20.00000 -0.09000 0.00000 536.3 105.8 0.0 0.0 0.00000 -12.49080 -0.24954 26.19961 -1.502 
5374.68 2 0 100.00000 -20.00000 -0.09000 0.00000 536.7 -16.7 0.0 0.0 0.00000 -13.46455 -0.32008 -9.98791 -1.597 
5399.42 2 0 100.00000 -20.00000 -0.13500 0.00000 536.7 10.2 0.0 0.0 0.00000 -14.30340 -0.14710 22.19959 -1.596 
5424.45 2 0 100.00000 -20.00000 -0.15000 0.00000 536.4 37.0 0.0 0.0 0.00000 -14.97019 -0.06640 10.69960 -1.523 
5449.46 2 0 100.00000 -20.00000 -0.13500 0.00000 535.8 17.5 0.0 0.0 0.00000 -15.38015 -0.03738 -2.73791 -1.386 
5474.68 2 0 100.00000 -20.00000 -0.07500 0.00000 535.8 -2.4 0.0 0.0 0.00000 -15.69498 -0.14240 14.26209 -1.376 
5499.46 2 0 100.00000 -20.00000 -0.04500 0.00000 535.6 -26.3 0.0 0.0 0.00000 -16.04245 -0.18820 -23.30041 -1.331 
5524.64 2 0 100.00000 -20.00000 0.00000 -0.15500 535.7 -0.7 0.0 0.0 0.00000 -16.23741 -0.26066 21.44959 -1.357 
5549.45 2 0 100.00000 -20.00000 -0.03000 0.00000 535.7 -40.9 0.0 0.0 0.00000 -16.29119 -0.29520 -8.55041 -1.354 
5574.63 2 0 100.00000 -20.00000 -0.03000 -0.15500 535.6 -24.5 0.0 0.0 0.00000 -16.44648 -0.08272 -10.61291 -1.333 
5599.24 2 0 100.00000 -20.00000 0.00000 0.00000 535.7 -23.1 0.0 0.0 0.00000 -16.44060 0.01191 9.57459 -1.364 
5624.63 2 0 100.00000 -20.00000 0.00000 0.00000 535.8 -20.2 0.0 0.0 0.00000 -16.65388 -0.04969 -1.98791 -1.375 
5649.44 2 0 100.00000 -20.00000 -0.03000 0.00000 535.7 -12.0 0.0 0.0 0.00000 -16.79487 -0.01754 -6.48791 -1.355 
5674.66 2 0 100.00000 -20.00000 -0.04500 0.00000 535.3 -14.1 0.0 0.0 0.00000 -16.95845 -0.09650 9.69959 -1.262 
5699.44 2 0 100.00000 -20.00000 -0.03000 0.00000 535.5 18.5 0.0 0.0 0.00000 -17.18487 -0.09283 -4.42541 -1.299 
5724.68 2 0 100.00000 -20.00000 -0.03000 0.00000 535.9 3.7 0.0 0.0 0.00000 -17.38939 0.04203 7.63709 -1.406 
5749.43 2 0 100.00000 -20.00000 0.00000 0.00000 535.9 -0.7 0.0 0.0 0.00000 -17.67693 -0.01528 -3.36291 -1.402 
5774.65 2 0 100.00000 -20.00000 0.00000 0.00000 535.6 17.2 0.0 0.0 0.00000 -17.99473 -0.01834 -8.80041 -1.343 
5799.47 2 0 100.00000 -20.00000 0.00000 0.00000 535.6 -5.4 0.0 0.0 0.00000 -18.19002 -0.16475 14.63709 -1.344 
5824.67 2 0 100.00000 -20.00000 0.00000 0.00000 535.6 28.1 0.0 0.0 0.00000 -18.37962 -0.20263 -15.55041 -1.335 
5849.47 2 0 100.00000 -20.00000 0.00000 0.00000 535.8 -6.5 0.0 0.0 0.00000 -18.44291 -0.08681 11.44959 -1.379 
5874.64 2 0 100.00000 -20.00000 0.00000 -0.15500 535.9 -4.4 0.0 0.0 0.00000 -18.66527 -0.19642 -1.67541 -1.406 
5899.46 2 0 100.00000 -20.00000 0.00000 0.00000 536.2 34.7 0.0 0.0 0.00000 -18.78048 -0.06683 -20.98791 -1.478 
5924.63 2 0 100.00000 -20.00000 0.09000 0.00000 536.5 -47.7 0.0 0.0 0.00000 -18.85428 -0.13537 32.69958 -1.551 
5949.45 2 0 100.00000 -20.00000 0.09000 0.00000 537.2 61.1 0.0 0.0 0.00000 -18.97447 -0.05269 -30.86290 -1.703 
5974.68 2 0 100.00000 -20.00000 0.09000 0.00000 536.9 39.5 0.0 0.0 0.00000 -18.95307 -0.10575 15.44959 -1.644 
5999.42 2 0 100.00000 20.00000 0.09000 0.00000 536.9 318.7 0.0 0.0 0.00000 -18.72424 -0.02309 -14.17541 -1.631 
6024.68 2 0 100.00000 -20.00000 0.07500 0.00000 537.2 -50.5 0.0 0.0 0.00000 -18.35027 0.05094 1.44958 -1.723 
6049.46 2 0 100.00000 -10.69500 0.09000 0.00000 537.5 15.7 0.0 0.0 0.00000 -17.87788 -0.05479 -49.05042 -1.784 
6074.67 2 0 100.00000 -7.59000 0.07500 0.00000 537.5 65.3 0.0 0.0 0.00000 -17.07552 -0.27625 -2.30041 -1.781 
6099.43 2 0 100.00000 3.68000 0.07500 0.00000 537.5 62.3 0.0 0.0 0.00000 -16.11982 -0.13503 7.69958 -1.789 
6124.63 2 0 100.00000 3.68000 0.07500 0.00000 537.8 106.2 0.0 0.0 0.00000 -15.06538 -0.26211 -1.36292 -1.868 
6149.45 2 0 100.00000 -0.69000 0.09000 0.00000 538.4 -50.0 0.0 0.0 0.00000 -13.73827 -0.17010 -29.98793 -2.010 
6174.75 2 0 100.00000 -0.34500 0.09000 0.00000 538.8 -70.0 0.0 0.0 0.00000 -12.42775 -0.21193 24.51207 -2.093 
6199.53 2 0 100.00000 -0.11500 0.07500 0.00000 538.7 -96.4 0.0 0.0 0.00000 -11.01085 -0.25527 -8.17543 -2.071 
6224.69 2 0 100.00000 -0.11500 0.09000 0.00000 538.8 -26.8 0.0 0.0 0.00000 -9.86689 -0.10174 -7.42542 -2.105 
6249.45 2 0 100.00000 -0.34500 0.07500 0.00000 538.8 4.3 0.0 0.0 0.00000 -8.55439 -0.34832 94.88708 -2.097 
6274.66 2 0 100.00000 -0.34500 0.09000 0.00000 538.6 -148.0 0.0 0.0 0.00000 -7.31845 -0.39162 2.88707 -2.045 
6299.45 2 0 100.00000 -0.34500 0.09000 0.00000 538.6 -26.3 0.0 0.0 0.00000 -6.36636 -0.16654 -43.48792 -2.042 
6324.68 2 0 100.00000 -0.34500 0.09000 0.00000 538.1 -23.7 0.0 0.0 0.00000 -5.48373 -0.36811 50.13708 -1.934 
6349.43 2 0 100.00000 -0.11500 0.09000 0.00000 537.9 -18.3 0.0 0.0 0.00000 -4.88042 -0.49832 10.13708 -1.869 
6374.67 2 0 100.00000 -0.34500 0.09000 0.15500 537.3 1.9 0.0 0.0 0.00000 -4.40954 -0.51345 9.38708 -1.741 
6399.44 2 0 100.00000 -0.11500 0.10500 0.00000 536.8 -12.6 0.0 0.0 0.00000 -4.07311 -0.54530 6.82458 -1.630 
6424.64 2 0 100.00000 -0.34500 0.10500 0.00000 536.3 15.7 0.0 0.0 0.00000 -3.88998 -0.56554 -0.73791 -1.490 
6449.44 2 0 100.00000 -0.34500 0.09000 0.00000 535.5 33.9 0.0 0.0 0.00000 -3.65834 -0.50642 -3.80041 -1.318 
6474.64 2 0 100.00000 -0.11500 0.09000 0.00000 535.2 25.6 0.0 0.0 0.00000 -3.66945 -0.50682 -11.80041 -1.228 
6499.46 2 0 100.00000 -0.34500 0.09000 0.00000 535.1 28.6 0.0 0.0 0.00000 -3.69663 -0.47367 -0.05041 -1.213 
6524.65 2 0 100.00000 -0.34500 0.09000 0.00000 534.6 26.9 0.0 0.0 0.00000 -3.71061 -0.44743 2.94959 -1.098 
6549.47 2 0 100.00000 -0.34500 0.09000 0.00000 534.3 19.1 0.0 0.0 0.00000 -3.80214 -0.45682 2.44959 -1.032 
6574.65 2 0 100.00000 -0.34500 0.09000 0.00000 534.1 21.2 0.0 0.0 0.00000 -3.72077 -0.45044 -4.86291 -0.977 
6599.25 2 0 100.00000 -0.34500 0.09000 0.00000 533.8 14.6 0.0 0.0 0.00000 -3.59202 -0.46066 -5.86291 -0.896 
6624.65 2 0 100.00000 -0.11500 0.07500 0.00000 533.7 16.5 0.0 0.0 0.00000 -3.49556 -0.42808 -5.23791 -0.892 
6649.43 2 0 100.00000 -0.34500 0.09000 0.00000 533.3 12.5 0.0 0.0 0.00000 -3.32225 -0.43257 -10.92541 -0.781 
6674.63 2 0 100.00000 -0.34500 0.06000 0.00000 533.1 9.5 0.0 0.0 0.00000 -3.15051 -0.42815 -1.80041 -0.728 
6699.44 2 0 100.00000 -0.34500 0.07500 -0.15500 533.1 -14.0 0.0 0.0 0.00000 -2.87856 -0.43393 4.19958 -0.738 
6724.64 2 0 100.00000 -0.34500 0.09000 0.00000 532.9 14.0 0.0 0.0 0.00000 -2.74257 -0.39534 -14.36291 -0.691 
6749.43 2 0 100.00000 -0.34500 0.09000 0.00000 533.0 -5.2 0.0 0.0 0.00000 -2.47454 -0.28714 -5.48791 -0.708 
6774.66 2 0 100.00000 -0.34500 0.09000 0.00000 532.8 -35.5 0.0 0.0 0.00000 -2.31770 -0.46418 18.76208 -0.678 
6799.44 2 0 100.00000 -0.11500 0.09000 0.00000 532.5 46.8 0.0 0.0 0.00000 -2.13548 -0.34886 -27.11291 -0.602 
6824.68 2 0 100.00000 -0.34500 0.09000 0.00000 532.1 -43.7 0.0 0.0 0.00000 -1.97723 -0.43420 17.57458 -0.509 
6849.45 2 0 100.00000 -0.34500 0.06000 0.00000 532.5 48.9 0.0 0.0 0.00000 -1.94608 -0.47758 -28.48791 -0.585 
6874.65 2 0 100.00000 -0.34500 0.07500 0.00000 532.3 -19.3 0.0 0.0 0.00000 -1.84506 -0.21070 8.69958 -0.550 
6899.43 2 0 100.00000 -0.34500 0.07500 0.00000 532.5 13.3 0.0 0.0 0.00000 -1.89330 -0.43121 -0.42541 -0.587 
6924.67 2 0 100.00000 -0.34500 0.09000 0.00000 532.3 45.8 0.0 0.0 0.00000 -1.85856 -0.33408 -19.05041 -0.553 
6949.43 2 0 100.00000 -0.34500 0.09000 0.00000 532.2 -46.6 0.0 0.0 0.00000 -1.79983 -0.43520 34.07458 -0.532 
6974.67 2 0 100.00000 -0.34500 0.07500 0.00000 532.4 57.6 0.0 0.0 0.00000 -1.81000 -0.39388 -26.73791 -0.570 
6999.42 2 0 100.00000 -0.34500 0.09000 0.00000 532.6 -48.3 0.0 0.0 0.00000 -1.74970 -0.38533 28.44958 -0.628 
7024.65 2 0 100.00000 -0.11500 0.09000 0.00000 533.1 57.2 0.0 0.0 0.00000 -1.82724 -0.48561 -21.61291 -0.730 
7049.42 2 0 100.00000 -0.11500 0.09000 0.00000 533.3 -11.0 0.0 0.0 0.00000 -1.73280 -0.26587 29.57459 -0.783 
7074.64 2 0 100.00000 -0.34500 0.09000 0.00000 533.6 1.7 0.0 0.0 0.00000 -1.74274 -0.48085 2.44959 -0.857 
7099.42 2 0 100.00000 -0.34500 0.09000 0.00000 534.0 24.6 0.0 0.0 0.00000 -1.66949 -0.37215 -4.23791 -0.956 
7124.63 2 0 100.00000 -0.11500 0.07500 0.00000 534.6 -54.4 0.0 0.0 0.00000 -1.61538 -0.49070 24.88708 -1.097 
7149.43 2 0 100.00000 -0.34500 0.07500 0.00000 535.0 52.9 0.0 0.0 0.00000 -1.55801 -0.26101 -37.36291 -1.183 
7174.66 2 0 100.00000 -0.34500 0.09000 0.00000 534.9 -20.9 0.0 0.0 0.00000 -1.48392 -0.37375 18.82458 -1.166 
7199.42 2 0 100.00000 -0.11500 0.09000 0.00000 535.1 51.7 0.0 0.0 0.00000 -1.46764 -0.26458 -30.80041 -1.216 
7224.63 2 0 100.00000 -0.11500 0.09000 0.00000 535.6 -47.5 0.0 0.0 0.00000 -1.37818 -0.37727 26.01208 -1.338 
7249.43 2 0 100.00000 -0.11500 0.09000 -0.46500 535.7 49.1 0.0 0.0 0.00000 -1.38341 -0.35704 -49.17541 -1.364 
7274.67 2 0 100.00000 -0.34500 0.09000 0.00000 536.3 -39.7 0.0 0.0 0.00000 -1.35444 -0.43329 15.44958 -1.491 
7299.46 2 0 100.00000 -0.34500 0.07500 -0.15500 536.9 56.0 0.0 0.0 0.00000 -1.33663 -0.31130 -10.23791 -1.648 
7324.63 2 0 100.00000 -0.34500 0.09000 0.00000 537.5 -49.7 0.0 0.0 0.00000 -1.24699 -0.31404 32.13708 -1.794 
7349.46 2 0 100.00000 -0.34500 0.09000 0.00000 537.8 56.8 0.0 0.0 0.00000 -1.26429 -0.32102 -19.30041 -1.854 
7374.64 2 0 100.00000 -0.34500 0.09000 0.00000 537.9 -68.1 0.0 0.0 0.00000 -1.17337 -0.40968 18.32458 -1.884 
7399.46 2 0 100.00000 -0.34500 0.09000 0.00000 538.1 58.2 0.0 0.0 0.00000 -1.24970 -0.40898 -11.80041 -1.928 
7424.65 2 0 100.00000 -0.34500 0.09000 0.00000 538.3 -42.2 0.0 0.0 0.00000 -1.14190 -0.43569 20.01208 -1.980 
7449.52 2 0 100.00000 -0.34500 0.09000 0.00000 538.9 -28.5 0.0 0.0 0.00000 -1.07382 -0.30965 37.38708 -2.127 
7474.71 2 0 100.00000 -0.34500 0.09000 0.00000 539.4 -0.5 0.0 0.0 0.00000 -1.10812 -0.27311 11.76209 -2.236 
7499.43 2 0 100.00000 -0.34500 0.09000 0.00000 539.2 50.6 0.0 0.0 0.00000 -1.09205 -0.29254 -22.98791 -2.182 
7524.67 2 0 100.00000 -0.34500 0.09000 0.00000 538.9 11.6 0.0 0.0 0.00000 -1.05650 -0.14545 -5.42541 -2.121 
7549.44 2 0 100.00000 -0.34500 0.09000 0.00000 538.7 -53.2 0.0 0.0 0.00000 -1.08070 -0.26323 39.07458 -2.071 
7574.67 2 0 100.00000 -0.11500 0.09000 0.00000 538.1 16.5 0.0 0.0 0.00000 -1.18010 -0.32933 14.32459 -1.936 
7599.42 1 0 100.00000 -0.11500 0.09000 0.00000 537.7 53.6 0.0 0.0 0.00000 -1.13595 -0.17667 -54.48791 -1.830 
7624.65 2 0 100.00000 20.00000 0.09000 0.00000 537.5 217.8 0.0 0.0 0.00000 -1.08139 -0.31123 -2.61291 -1.774 
7649.43 2 0 100.00000 20.00000 0.09000 0.00000 536.9 183.9 0.0 0.0 0.00000 -0.87856 -0.26937 17.38709 -1.642 
7674.65 2 0 100.00000 20.00000 0.09000 0.00000 536.7 95.7 0.0 0.0 0.00000 -0.44377 -0.25559 11.69958 -1.589 
7699.42 2 0 100.00000 20.00000 0.09000 -0.15500 536.1 97.2 0.0 0.0 0.00000 -0.05700 -0.31183 -23.67542 -1.453 
7724.64 2 0 100.00000 20.00000 0.09000 0.00000 535.8 92.5 0.0 0.0 0.00000 0.77686 -0.17821 -12.86292 -1.381 
7749.44 2 0 100.00000 20.00000 0.07500 0.00000 535.8 41.8 0.0 0.0 0.00000 1.82713 -0.19891 -31.61292 -1.375 
7774.66 2 0 100.00000 20.00000 0.06000 0.00000 535.0 -50.4 0.0 0.0 0.00000 3.11655 -0.42478 26.32457 -1.195 
7799.47 2 0 100.00000 20.00000 0.09000 0.00000 534.5 -53.8 0.0 0.0 0.00000 4.50061 -0.36419 -11.61293 -1.060 
7824.67 2 0 100.00000 20.00000 0.09000 0.00000 534.0 -63.9 0.0 0.0 0.00000 5.95108 -0.27682 9.32457 -0.952 
7849.44 2 0 100.00000 20.00000 0.09000 0.00000 533.7 -45.7 0.0 0.0 0.00000 7.42999 -0.32461 -4.67543 -0.891 
7874.64 2 0 100.00000 20.00000 0.09000 0.00000 533.7 -83.2 0.0 0.0 0.00000 8.76276 -0.06196 -31.36293 -0.883 
7899.43 2 0 100.00000 20.00000 0.09000 0.00000 533.5 -61.8 0.0 0.0 0.00000 10.19185 -0.22837 37.13707 -0.844 
7924.68 2 0 100.00000 20.00000 0.07500 0.00000 533.3 -70.7 0.0 0.0 0.00000 11.50101 -0.12923 5.51207 -0.780 
7949.43 2 0 100.00000 20.00000 0.09000 0.00000 532.7 -53.6 0.0 0.0 0.00000 12.51651 -0.15753 -32.30042 -0.650 
7974.64 2 0 100.00000 20.00000 0.09000 0.00000 532.6 -47.1 0.0 0.0 0.00000 13.43279 -0.14642 5.51208 -0.614 
7999.45 2 0 100.00000 20.00000 0.09000 0.00000 532.7 -4.9 0.0 0.0 0.00000 14.12242 -0.11414 12.82458 -0.654 
8024.63 2 0 100.00000 20.00000 0.09000 0.00000 532.4 10.5 0.0 0.0 0.00000 14.60408 -0.07490 2.19958 -0.568 
8049.47 2 0 100.00000 20.00000 0.09000 0.00000 532.3 3.6 0.0 0.0 0.00000 14.95532 -0.02045 3.01208 -0.548 
8074.67 2 0 100.00000 20.00000 0.09000 0.00000 532.6 32.2 0.0 0.0 0.00000 15.16330 -0.13370 1.82459 -0.628 
8099.44 2 0 100.00000 20.00000 0.07500 0.00000 532.8 31.4 0.0 0.0 0.00000 15.36157 -0.13614 -9.98791 -0.672 
8124.64 2 0 100.00000 20.00000 0.09000 0.00000 532.8 19.4 0.0 0.0 0.00000 15.41905 -0.12976 0.51209 -0.671 
8149.43 2 0 100.00000 20.00000 0.09000 0.00000 532.6 28.7 0.0 0.0 0.00000 15.47068 0.01550 -1.55041 -0.613 
8174.67 2 0 100.00000 20.00000 0.09000 -0.15500 532.2 37.3 0.0 0.0 0.00000 15.47940 0.05870 2.76209 -0.515 
8199.43 2 0 100.00000 20.00000 0.09000 0.00000 532.1 28.6 0.0 0.0 0.00000 15.58540 0.10276 4.94959 -0.512 
8224.68 2 0 100.00000 20.00000 0.09000 0.00000 532.4 29.5 0.0 0.0 0.00000 15.65950 -0.00320 -5.61291 -0.561 
8249.42 2 0 100.00000 20.00000 0.09000 0.00000 532.2 12.0 0.0 0.0 0.00000 15.85097 0.04949 -2.05041 -0.530 
8274.67 2 0 100.00000 20.00000 0.09000 0.00000 532.2 16.9 0.0 0.0 0.00000 15.91483 0.06576 -6.30041 -0.536 
8299.42 2 0 100.00000 20.00000 0.07500 0.00000 531.9 -0.8 0.0 0.0 0.00000 16.20852 0.17406 3.19958 -0.464 
8324.67 2 0 100.00000 20.00000 0.09000 0.00000 531.7 -4.8 0.0 0.0 0.00000 16.45070 0.10966 -1.86292 -0.408 
8349.46 2 0 100.00000 20.00000 0.09000 0.00000 531.8 -2.9 0.0 0.0 0.00000 16.81968 0.20414 -5.17542 -0.417 
8374.68 2 0 100.00000 20.00000 0.09000 0.00000 531.7 15.2 0.0 0.0 0.00000 17.01900 0.11361 -17.61291 -0.398 
8399.45 2 0 100.00000 20.00000 0.09000 0.00000 531.5 -32.0 0.0 0.0 0.00000 17.36437 0.22897 20.94958 -0.351 
8424.66 2 0 100.00000 20.00000 0.07500 0.00000 531.5 41.1 0.0 0.0 0.00000 17.53183 0.10263 -18.11291 -0.354 
8449.47 2 0 100.00000 20.00000 0.09000 0.00000 531.5 -31.8 0.0 0.0 0.00000 17.90317 0.07500 30.44958 -0.360 
8474.64 2 0 100.00000 20.00000 0.09000 0.00000 532.0 36.1 0.0 0.0 0.00000 18.02547 0.04258 -27.92541 -0.480 
8499.45 2 0 100.00000 20.00000 0.07500 0.00000 532.3 -44.0 0.0 0.0 0.00000 18.25585 0.11964 33.07458 -0.545 
8524.65 2 0 100.00000 20.00000 0.09000 0.00000 532.5 46.8 0.0 0.0 0.00000 18.31502 0.09310 -31.80041 -0.591 
8549.44 2 0 100.00000 20.00000 0.07500 0.00000 533.0 -29.8 0.0 0.0 0.00000 18.47803 0.21024 28.69958 -0.721 
8574.65 2 0 100.00000 20.00000 0.09000 -0.15500 533.5 56.3 0.0 0.0 0.00000 18.50821 0.11159 -20.98791 -0.828 
8599.44 2 0 100.00000 20.00000 0.09000 0.00000 533.8 -25.8 0.0 0.0 0.00000 18.63843 0.17472 22.26208 -0.909 
8624.66 2 0 100.00000 20.00000 0.09000 -0.15500 534.4 63.1 0.0 0.0 0.00000 18.64827 0.11245 -32.61291 -1.056 
8649.47 2 0 100.00000 20.00000 0.06000 0.00000 534.8 -48.4 0.0 0.0 0.00000 18.79589 0.28191 26.32458 -1.143 
8674.64 2 0 100.00000 20.00000 0.09000 0.00000 535.3 73.9 0.0 0.0 0.00000 18.69832 0.20981 -27.67541 -1.255 
8699.45 2 0 100.00000 20.00000 0.09000 0.00000 536.0 -39.9 0.0 0.0 0.00000 18.82351 0.36776 43.57458 -1.417 
8724.80 2 0 100.00000 20.00000 0.09000 0.00000 536.7 -30.0 0.0 0.0 0.00000 18.99566 0.37987 38.88708 -1.589 
8749.30 2 0 100.00000 20.00000 0.06000 0.00000 536.9 49.2 0.0 0.0 0.00000 19.03123 0.56379 -36.98791 -1.651 
8774.66 1 0 100.00000 20.00000 0.09000 0.00000 536.5 -25.7 0.0 0.0 0.00000 19.16623 0.51961 6.88708 -1.556 
8799.44 2 0 100.00000 1.03500 0.09000 0.00000 536.1 -115.1 0.0 0.0 0.00000 19.13091 0.36325 -3.36291 -1.455 
8824.66 2 0 100.00000 -0.57500 0.09000 0.00000 535.5 -147.2 0.0 0.0 0.00000 19.03211 0.63953 -4.98791 -1.314 
8849.44 2 0 100.00000 -1.38000 0.09000 0.00000 535.2 -140.6 0.0 0.0 0.00000 18.75541 0.54072 -3.48791 -1.236 
8874.64 2 0 100.00000 -5.98000 0.07500 0.00000 534.8 -134.9 0.0 0.0 0.00000 18.44228 0.37665 40.51210 -1.135 
8899.44 2 0 100.00000 -7.24500 0.09000 0.00000 534.2 -192.6 0.0 0.0 0.00000 17.83708 0.45103 -23.98791 -1.002 
8924.67 2 0 100.00000 -7.59000 0.09000 0.00000 534.0 -51.8 0.0 0.0 0.00000 16.92806 0.47662 30.32461 -0.941 
8949.43 2 0 100.00000 -7.59000 0.06000 0.00000 533.5 -61.0 0.0 0.0 0.00000 15.60416 0.39640 -14.55040 -0.839 
8974.67 2 0 100.00000 -5.86500 0.09000 0.00000 533.1 49.7 0.0 0.0 0.00000 14.06582 0.27321 30.13711 -0.744 
8999.42 2 0 100.00000 -3.79500 0.09000 0.00000 533.0 91.6 0.0 0.0 0.00000 12.29551 0.20615 -22.23789 -0.707 
9024.44 2 0 100.00000 -0.69000 0.09000 0.00000 532.9 57.4 0.0 0.0 0.00000 10.57555 0.00378 -36.17540 -0.692 
9049.47 2 0 100.00000 -0.69000 0.09000 0.00000 532.6 112.4 0.0 0.0 0.00000 8.67273 0.19327 0.82461 -0.623 
9074.46 2 0 100.00000 -0.69000 0.09000 0.00000 532.1 220.9 0.0 0.0 0.00000 6.99255 0.22514 6.76212 -0.504 
9099.43 2 0 100.00000 -0.69000 0.09000 0.00000 532.1 78.5 0.0 0.0 0.00000 5.35511 0.09915 -9.30040 -0.500 
9124.45 2 0 100.00000 -0.69000 0.09000 -0.15500 532.6 67.0 0.0 0.0 0.00000 3.90619 0.40479 -28.98790 -0.614 
9149.43 2 0 100.00000 -0.69000 0.09000 0.00000 532.5 166.3 0.0 0.0 0.00000 2.68442 0.27752 6.82461 -0.593 
9174.47 2 0 100.00000 -0.57500 0.09000 0.00000 532.5 145.2 0.0 0.0 0.00000 1.87116 0.17922 13.38711 -0.586 
9199.46 2 0 100.00000 -0.69000 0.09000 0.00000 532.4 45.9 0.0 0.0 0.00000 1.33656 0.09833 17.94960 -0.575 
9224.42 2 0 100.00000 -0.69000 0.09000 0.00000 531.7 32.6 0.0 0.0 0.00000 0.87077 0.11984 9.44959 -0.414 
9249.46 2 0 100.00000 -0.57500 0.09000 0.00000 531.7 -30.8 0.0 0.0 0.00000 0.70072 0.23050 -1.98791 -0.401 
9274.46 2 0 100.00000 -0.57500 0.09000 0.00000 531.3 -41.3 0.0 0.0 0.00000 0.78182 0.20017 18.44958 -0.308 
9299.44 2 0 100.00000 -0.57500 0.09000 0.00000 530.9 -69.4 0.0 0.0 0.00000 1.05319 0.19929 -3.98792 -0.208 
9324.44 2 0 100.00000 -0.57500 0.07500 0.00000 530.6 -43.2 0.0 0.0 0.00000 1.30689 0.30758 -8.80041 -0.141 
9349.46 2 0 100.00000 -0.57500 0.09000 0.00000 530.2 -58.6 0.0 0.0 0.00000 1.64078 0.19847 29.44958 -0.047 
9374.45 2 0 100.00000 -0.57500 0.09000 0.00000 530.4 -49.9 0.0 0.0 0.00000 2.01286 0.25458 -5.61291 -0.085 
9399.47 2 0 100.00000 -0.69000 0.09000 0.00000 529.9 -56.6 0.0 0.0 0.00000 2.22138 0.24664 -1.17541 0.022 
9424.44 2 0 100.00000 -0.57500 0.09000 0.00000 530.0 -49.1 0.0 0.0 0.00000 2.31941 0.15456 -3.48791 0.008 
9449.47 2 0 100.00000 -0.57500 0.09000 0.00000 529.9 -22.5 0.0 0.0 0.00000 2.44722 0.16100 4.44959 0.024 
9474.45 2 0 100.00000 -0.57500 0.09000 0.00000 529.9 -15.7 0.0 0.0 0.00000 2.41345 0.16576 -0.36291 0.031 
9499.45 2 0 100.00000 -0.57500 0.09000 0.00000 529.9 4.3 0.0 0.0 0.00000 2.31454 0.15724 -3.05041 0.032 
9524.47 2 0 100.00000 -0.57500 0.09000 0.00000 529.3 -4.3 0.0 0.0 0.00000 1.99856 0.10842 -4.61291 0.162 
9549.45 2 0 100.00000 -0.34500 0.09000 0.00000 529.2 19.9 0.0 0.0 0.00000 1.58589 0.12738 -0.73791 0.184 
9574.44 2 0 100.00000 -0.34500 0.09000 0.00000 529.5 21.9 0.0 0.0 0.00000 1.32098 0.08747 -0.30041 0.112 
9599.46 2 0 100.00000 -0.69000 0.07500 0.00000 529.5 14.8 0.0 0.0 0.00000 0.97242 0.11453 -1.30041 0.128 
9624.46 2 0 100.00000 -0.34500 0.09000 0.00000 529.5 21.4 0.0 0.0 0.00000 0.69552 0.12738 0.26209 0.117 
9649.42 2 0 100.00000 -0.57500 0.09000 0.00000 529.9 7.0 0.0 0.0 0.00000 0.45233 0.19123 0.51209 0.012 
9674.43 2 0 100.00000 -0.57500 0.07500 0.00000 530.2 9.1 0.0 0.0 0.00000 0.21922 0.15997 1.32459 -0.057 
9699.44 2 0 100.00000 -0.57500 0.09000 0.00000 530.4 2.6 0.0 0.0 0.00000 0.09440 0.16331 1.57459 -0.100 
9724.41 2 0 100.00000 -0.57500 0.09000 0.00000 531.2 -3.0 0.0 0.0 0.00000 0.00736 0.09632 3.88709 -0.284 
9749.41 2 0 100.00000 -0.57500 0.09000 0.00000 531.3 -4.6 0.0 0.0 0.00000 0.03485 0.15051 -2.42541 -0.301 
9774.45 2 0 100.00000 -0.57500 0.09000 0.00000 531.8 -6.5 0.0 0.0 0.00000 0.05844 0.25258 1.01209 -0.421 
9799.41 2 0 100.00000 -0.34500 0.09000 0.00000 532.4 -1.7 0.0 0.0 0.00000 0.04602 0.25042 -5.42541 -0.561 
9824.46 2 0 100.00000 -0.57500 0.09000 0.00000 532.7 -7.5 0.0 0.0 0.00000 0.06234 0.25030 5.44959 -0.654 
9849.43 2 0 100.00000 -0.57500 0.07500 0.00000 533.5 6.2 0.0 0.0 0.00000 0.06784 0.17882 -7.30041 -0.840 
9874.42 2 0 100.00000 -0.57500 0.09000 0.00000 534.0 -12.5 0.0 0.0 0.00000 0.07643 0.21350 6.82459 -0.945 
9899.44 2 0 100.00000 -0.57500 0.09000 0.00000 534.2 10.2 0.0 0.0 0.00000 -0.00841 0.19502 -3.67541 -0.991 
9924.45 2 0 100.00000 -0.34500 0.09000 0.00000 534.5 -5.1 0.0 0.0 0.00000 -0.00636 0.31340 4.19959 -1.082 
9949.56 2 0 100.00000 -0.57500 0.09000 0.00000 534.7 -15.4 0.0 0.0 0.00000 -0.11635 0.21388 10.26209 -1.120 
9974.54 2 0 100.00000 -0.57500 0.09000 0.00000 534.6 -30.7 0.0 0.0 0.00000 -0.16961 0.12813 20.69959 -1.105 
9999.45 2 0 100.00000 -0.69000 0.09000 0.00000 534.4 -22.5 0.0 0.0 0.00000 -0.23043 0.10279 5.19959 -1.058 
10024.44 2 0 100.00000 -2.41500 0.07500 0.00000 534.4 31.9 0.0 0.0 0.00000 -0.22994 0.20121 -18.73791 -1.047 
10049.49 1 0 100.00000 -7.24500 0.09000 0.00000 534.2 -104.2 0.0 0.0 0.00000 -0.12396 0.29955 12.69958 -1.003 
10074.45 2 0 100.00000 -14.49000 0.09000 0.00000 533.9 -108.6 0.0 0.0 0.00000 -0.32720 0.10346 -13.42541 -0.935 
10099.45 2 0 100.00000 -20.00000 0.09000 0.00000 533.3 -133.3 0.0 0.0 0.00000 -0.52904 0.12422 -2.55041 -0.786 
10124.44 2 0 100.00000 -20.00000 0.09000 -0.15500 532.8 -136.4 0.0 0.0 0.00000 -0.88678 -0.03446 -7.05041 -0.670 
10149.44 2 0 100.00000 -20.00000 0.09000 0.00000 532.6 -129.0 0.0 0.0 0.00000 -1.43892 -0.05361 54.76209 -0.612 
10174.42 2 0 100.00000 -20.00000 0.09000 0.00000 532.4 3.8 0.0 0.0 0.00000 -2.28019 -0.02220 -11.30039 -0.564 
10199.43 2 0 100.00000 -20.00000 0.09000 0.00000 531.8 -15.1 0.0 0.0 0.00000 -3.30807 0.14382 12.94960 -0.435 
10224.44 2 0 100.00000 -20.00000 0.09000 0.00000 531.2 -22.2 0.0 0.0 0.00000 -4.47192 0.00844 -14.55040 -0.292 
10249.43 2 0 100.00000 -20.00000 0.09000 0.00000 530.9 79.7 0.0 0.0 0.00000 -5.83566 -0.14278 -6.55039 -0.225 
10274.45 1 0 100.00000 -20.00000 0.07500 0.00000 530.4 56.6 0.0 0.0 0.00000 -7.12953 -0.39850 23.82461 -0.100 
10299.45 2 0 100.00000 -20.00000 0.07500 0.00000 530.3 67.7 0.0 0.0 0.00000 -8.67621 -0.22452 -11.05039 -0.083 
10324.42 2 0 100.00000 -20.00000 0.09000 0.00000 530.4 15.0 0.0 0.0 0.00000 -10.02920 0.01973 9.82460 -0.089 
10349.46 2 0 100.00000 -20.00000 0.09000 0.00000 530.6 112.8 0.0 0.0 0.00000 -11.26780 0.05386 29.76211 -0.143 
10374.47 2 0 100.00000 -20.00000 0.09000 0.00000 530.9 133.1 0.0 0.0 0.00000 -12.38001 0.10443 -7.73789 -0.218 
10399.47 2 0 100.00000 -20.00000 0.07500 0.00000 531.2 48.7 0.0 0.0 0.00000 -13.41014 -0.05936 -19.11290 -0.283 
10424.46 2 0 100.00000 -20.00000 0.09000 0.00000 531.0 57.4 0.0 0.0 0.00000 -14.37614 -0.07686 -19.80040 -0.242 
10449.42 2 0 100.00000 -20.00000 0.10500 0.00000 530.7 69.4 0.0 0.0 0.00000 -15.04382 -0.18817 12.26210 -0.177 
10474.43 2 0 100.00000 -20.00000 0.09000 0.00000 530.8 19.4 0.0 0.0 0.00000 -15.63843 -0.20276 3.76209 -0.188 
10499.46 2 0 100.00000 -20.00000 0.09000 0.00000 530.5 -5.5 0.0 0.0 0.00000 -16.01759 -0.03066 -13.61291 -0.109 
10524.45 1 0 100.00000 -20.00000 0.09000 0.00000 530.0 -30.6 0.0 0.0 0.00000 -16.30809 0.00892 14.19959 0.005 
10549.47 2 0 100.00000 -20.00000 0.09000 0.00000 529.7 -52.0 0.0 0.0 0.00000 -16.38761 -0.03294 17.44959 0.060 
10574.43 2 0 100.00000 -20.00000 0.09000 0.00000 529.6 -32.1 0.0 0.0 0.00000 -16.50417 -0.15863 10.38709 0.090 
10599.42 2 0 100.00000 -20.00000 0.09000 0.00000 529.6 -21.9 0.0 0.0 0.00000 -16.46356 -0.02790 -3.23791 0.101 
10624.46 2 0 100.00000 -20.00000 0.09000 0.00000 529.3 -79.8 0.0 0.0 0.00000 -16.36369 -0.09991 33.57458 0.165 
10649.43 2 0 100.00000 -20.00000 0.09000 0.00000 528.7 13.7 0.0 0.0 0.00000 -16.38006 -0.05612 -34.73791 0.298 
10674.46 2 0 100.00000 -20.00000 0.09000 0.00000 528.7 -55.7 0.0 0.0 0.00000 -16.29824 0.19649 8.76209 0.314 
10699.44 2 0 100.00000 -20.00000 0.09000 0.00000 528.7 -22.5 0.0 0.0 0.00000 -16.37826 -0.09034 -11.98791 0.316 
10724.45 2 0 100.00000 -20.00000 0.09000 0.00000 528.5 13.1 0.0 0.0 0.00000 -16.48359 0.00902 -25.30041 0.353 
10749.44 2 0 100.00000 -20.00000 0.09000 0.15500 528.7 -55.4 0.0 0.0 0.00000 -16.57903 -0.05177 38.88708 0.317 
10774.46 2 0 100.00000 -20.00000 0.09000 0.00000 528.5 46.9 0.0 0.0 0.00000 -16.84372 -0.15111 -26.05040 0.353 
10799.42 2 0 100.00000 -20.00000 0.09000 0.00000 528.5 -18.5 0.0 0.0 0.00000 -16.97346 0.06470 8.13709 0.354 
10824.43 2 0 100.00000 -20.00000 0.09000 0.00000 528.7 -13.5 0.0 0.0 0.00000 -17.25859 -0.05026 20.26209 0.319 
10849.44 2 0 100.00000 -20.00000 0.07500 0.00000 528.9 49.1 0.0 0.0 0.00000 -17.46209 -0.06763 -17.55040 0.262 
10874.46 2 0 100.00000 -20.00000 0.07500 0.00000 529.0 -44.4 0.0 0.0 0.00000 -17.64846 -0.08000 36.13708 0.248 
10899.47 2 0 100.00000 -20.00000 0.09000 0.00000 529.0 70.8 0.0 0.0 0.00000 -17.88878 -0.26959 -38.55040 0.245 
10924.47 2 0 100.00000 -20.00000 0.09000 0.00000 529.1 -41.8 0.0 0.0 0.00000 -17.96619 -0.12752 16.01209 0.213 
10949.44 2 0 100.00000 -20.00000 0.09000 0.00000 529.9 15.7 0.0 0.0 0.00000 -18.24507 -0.24264 4.13709 0.017 
10974.43 2 0 100.00000 -20.00000 0.07500 0.00000 530.2 -4.2 0.0 0.0 0.00000 -18.33219 -0.09745 8.63709 -0.041 
10999.43 2 0 100.00000 -20.00000 0.07500 0.00000 530.3 -26.9 0.0 0.0 0.00000 -18.46866 -0.18090 12.07459 -0.076 
11024.44 2 0 100.00000 -20.00000 0.07500 0.00000 530.9 27.7 0.0 0.0 0.00000 -18.52322 -0.13511 -25.48791 -0.205 
11049.44 2 0 100.00000 -20.00000 0.06000 0.00000 531.3 -58.5 0.0 0.0 0.00000 -18.52655 -0.21728 22.19958 -0.310 
11074.45 2 0 100.00000 -20.00000 0.09000 0.00000 531.8 38.7 0.0 0.0 0.00000 -18.55371 -0.02338 -36.05041 -0.435 
11099.44 2 0 100.00000 -20.00000 0.06000 0.00000 532.2 -60.0 0.0 0.0 0.00000 -18.52304 -0.11489 14.94958 -0.531 
11124.47 2 0 100.00000 -20.00000 0.07500 0.00000 532.7 30.1 0.0 0.0 0.00000 -18.57497 0.03450 -50.17541 -0.639 
11149.43 2 0 100.00000 -20.00000 0.09000 0.00000 532.9 -76.6 0.0 0.0 0.00000 -18.53291 -0.09356 27.19958 -0.699 
11174.43 2 0 100.00000 -20.00000 0.09000 0.00000 533.6 29.1 0.0 0.0 0.00000 -18.57111 0.03316 -21.17541 -0.847 
11199.55 2 0 100.00000 -20.00000 0.09000 0.00000 533.7 42.3 0.0 0.0 0.00000 -18.51943 0.08455 -54.36290 -0.881 
11224.50 2 0 100.00000 -20.00000 0.09000 -0.15500 533.6 -56.9 0.0 0.0 0.00000 -18.41532 0.12135 17.01208 -0.861 
11249.43 2 0 100.00000 -20.00000 0.09000 0.00000 533.7 -51.4 0.0 0.0 0.00000 -18.45552 0.08164 25.07458 -0.883 
11274.43 2 0 100.00000 -20.00000 0.09000 0.00000 533.5 40.1 0.0 0.0 0.00000 -18.45738 0.04315 -9.80041 -0.829 
11299.45 2 0 100.00000 -20.00000 0.09000 0.00000 533.2 9.8 0.0 0.0 0.00000 -18.42869 0.24289 -39.98791 -0.764 
11324.44 2 0 100.00000 -11.15500 0.09000 0.00000 533.0 34.3 0.0 0.0 0.00000 -18.46695 0.16497 26.51208 -0.720 
11349.46 2 0 100.00000 -7.93500 0.09000 0.00000 532.6 61.1 0.0 0.0 0.00000 -18.52072 0.13792 17.94958 -0.616 
11374.46 2 0 100.00000 -5.63500 0.09000 0.00000 532.4 137.2 0.0 0.0 0.00000 -18.38726 0.13826 -7.42541 -0.577 
11399.43 2 0 100.00000 -4.37000 0.09000 0.00000 532.3 101.3 0.0 0.0 0.00000 -18.21511 0.10152 -3.30041 -0.538 
11424.42 2 0 100.00000 -1.95500 0.09000 0.00000 532.1 74.2 0.0 0.0 0.00000 -17.97333 -0.03308 5.26208 -0.490 
11449.48 2 0 100.00000 -0.69000 0.09000 0.00000 531.8 80.0 0.0 0.0 0.00000 -17.41716 -0.02141 -2.30042 -0.431 
11474.42 2 0 100.00000 -0.57500 0.06000 0.00000 531.5 47.3 0.0 0.0 0.00000 -16.67086 -0.06309 9.57458 -0.347 
11499.47 2 0 100.00000 -0.69000 0.09000 0.00000 531.1 3.8 0.0 0.0 0.00000 -15.68035 -0.02034 6.38707 -0.270 
11524.45 2 0 100.00000 -0.57500 0.09000 0.00000 530.8 -19.6 0.0 0.0 0.00000 -14.56287 -0.00582 -40.98793 -0.194 
11549.45 2 0 100.00000 -0.57500 0.09000 0.00000 530.5 -11.2 0.0 0.0 0.00000 -13.41203 0.06763 3.76207 -0.127 
11574.46 2 0 100.00000 -0.57500 0.09000 0.00000 530.4 -27.1 0.0 0.0 0.00000 -12.02045 -0.19913 12.26208 -0.089 
11599.46 2 0 100.00000 -0.69000 0.09000 0.00000 530.5 -117.8 0.0 0.0 0.00000 -10.74682 -0.20471 -50.61293 -0.116 
11624.42 2 0 100.00000 -0.34500 0.07500 0.00000 530.2 -13.0 0.0 0.0 0.00000 -9.50871 0.02462 41.76208 -0.046 
11649.47 2 0 100.00000 -0.57500 0.09000 0.00000 530.0 -62.5 0.0 0.0 0.00000 -8.30173 -0.18757 -10.23792 0.001 
11674.45 2 0 100.00000 -0.69000 0.09000 -0.15500 530.0 -101.9 0.0 0.0 0.00000 -7.20976 -0.11723 -49.05043 0.012 
11699.41 2 0 100.00000 -0.34500 0.09000 0.00000 530.0 -12.3 0.0 0.0 0.00000 -6.25118 -0.00564 20.94958 0.011 
11724.45 2 0 100.00000 -0.57500 0.09000 0.00000 529.8 -45.1 0.0 0.0 0.00000 -5.42556 -0.21905 -23.23792 0.051 
11749.47 2 0 100.00000 -0.57500 0.09000 0.00000 529.8 -30.0 0.0 0.0 0.00000 -4.72101 -0.22040 15.76208 0.040 
11774.42 2 0 100.00000 -0.57500 0.09000 0.00000 529.4 -36.1 0.0 0.0 0.00000 -4.17142 -0.14855 8.76208 0.144 
11799.43 2 0 100.00000 -0.57500 0.09000 0.00000 529.3 -0.5 0.0 0.0 0.00000 -3.87764 -0.14887 -7.11292 0.156 
11824.43 2 0 100.00000 -0.57500 0.09000 0.00000 529.2 12.5 0.0 0.0 0.00000 -3.62861 -0.08063 -1.42541 0.198 
11849.43 2 0 100.00000 -0.57500 0.09000 0.00000 529.2 26.2 0.0 0.0 0.00000 -3.48749 -0.15646 -3.23791 0.189 
11874.44 2 0 100.00000 -0.57500 0.09000 0.00000 529.0 21.5 0.0 0.0 0.00000 -3.32680 -0.16696 0.26209 0.233 
11899.43 2 0 100.00000 -0.34500 0.09000 0.00000 529.0 14.6 0.0 0.0 0.00000 -3.36729 -0.12687 2.57459 0.238 
11924.42 2 0 100.00000 -0.57500 0.09000 0.00000 529.1 24.3 0.0 0.0 0.00000 -3.40847 0.01252 -1.61291 0.226 
11949.43 2 0 100.00000 -0.57500 0.09000 0.00000 528.9 19.4 0.0 0.0 0.00000 -3.38498 0.11405 -0.80041 0.264 
11974.44 2 0 100.00000 -0.57500 0.07500 0.00000 529.1 13.6 0.0 0.0 0.00000 -3.32334 0.09236 4.32459 0.206 
11999.43 2 0 100.00000 -0.57500 0.09000 0.00000 529.2 12.8 0.0 0.0 0.00000 -3.19357 0.08550 -6.55041 0.182 
12024.46 2 0 100.00000 -0.57500 0.07500 0.00000 529.4 4.9 0.0 0.0 0.00000 -3.10081 0.03301 -1.36291 0.140 
12049.25 2 0 100.00000 -0.57500 0.09000 0.00000 529.6 4.8 0.0 0.0 0.00000 -3.04849 0.10575 -2.67541 0.105 
12074.42 2 0 100.00000 -0.69000 0.09000 0.00000 529.8 -4.7 0.0 0.0 0.00000 -2.89815 0.13918 -1.23791 0.047 
12099.42 2 0 100.00000 -0.57500 0.09000 0.00000 529.9 0.9 0.0 0.0 0.00000 -2.63511 0.07965 -1.55041 0.030 
12124.42 2 0 100.00000 -0.57500 0.09000 0.15500 530.0 -18.9 0.0 0.0 0.00000 -2.41430 0.12268 10.57458 -0.007 
12149.44 2 0 100.00000 -0.69000 0.09000 0.00000 530.2 -7.0 0.0 0.0 0.00000 -2.25371 0.09970 -1.55041 -0.052 
12174.46 2 0 100.00000 -0.69000 0.09000 0.00000 530.1 -1.7 0.0 0.0 0.00000 -2.10940 0.10839 0.13709 -0.023 
12199.43 2 0 100.00000 -0.69000 0.09000 0.00000 530.5 -13.0 0.0 0.0 0.00000 -1.91710 0.10309 10.94959 -0.109 
12224.47 2 0 100.00000 -0.57500 0.09000 0.00000 530.9 15.5 0.0 0.0 0.00000 -1.82374 0.12922 -5.30041 -0.219 
12249.47 2 0 100.00000 -0.34500 0.07500 0.00000 531.0 -12.9 0.0 0.0 0.00000 -1.70151 0.09526 11.26209 -0.244 
12274.44 2 0 100.00000 -0.57500 0.09000 0.00000 531.6 27.0 0.0 0.0 0.00000 -1.68108 0.06265 -15.11291 -0.386 
12299.47 2 0 100.00000 -0.57500 0.09000 0.00000 532.0 -10.0 0.0 0.0 0.00000 -1.57632 0.13370 16.51209 -0.472 
12324.43 2 0 100.00000 -0.57500 0.09000 0.00000 532.7 26.6 0.0 0.0 0.00000 -1.60197 0.02472 -18.61291 -0.646 
12349.44 2 0 100.00000 -0.57500 0.09000 0.00000 532.9 -11.3 0.0 0.0 0.00000 -1.52928 0.09692 14.51209 -0.698 
12374.43 2 0 100.00000 -0.57500 0.09000 0.00000 532.9 21.9 0.0 0.0 0.00000 -1.59249 -0.06877 -11.80041 -0.685 
12399.42 2 0 100.00000 -0.57500 0.09000 0.00000 533.3 0.7 0.0 0.0 0.00000 -1.47003 0.04296 4.19959 -0.779 
12424.58 2 0 100.00000 -0.57500 0.09000 0.00000 533.1 -42.8 0.0 0.0 0.00000 -1.43098 -0.00144 32.51208 -0.727 
12449.58 2 0 100.00000 -0.57500 0.09000 0.00000 533.5 57.0 0.0 0.0 0.00000 -1.49326 -0.06939 -17.55041 -0.826 
12474.50 2 0 100.00000 -0.34500 0.09000 0.00000 533.6 23.9 0.0 0.0 0.00000 -1.39804 0.12210 -28.73791 -0.849 
12499.48 2 0 100.00000 -0.34500 0.10500 0.00000 533.3 -56.8 0.0 0.0 0.00000 -1.38665 -0.05066 29.01208 -0.779 
12524.45 2 0 100.00000 -0.57500 0.09000 0.00000 533.1 3.7 0.0 0.0 0.00000 -1.45198 -0.09141 12.01209 -0.740 
12549.46 2 0 100.00000 -0.69000 0.09000 0.00000 532.8 54.4 0.0 0.0 0.00000 -1.32085 -0.15020 -20.98791 -0.673 
12574.45 2 0 100.00000 -0.69000 0.09000 0.00000 532.0 -32.5 0.0 0.0 0.00000 -1.26714 -0.07856 13.63708 -0.488 
12599.43 2 0 100.00000 -0.57500 0.09000 0.00000 531.5 -1.4 0.0 0.0 0.00000 -1.27661 -0.22576 16.94959 -0.351 
12624.44 2 0 100.00000 -0.57500 0.07500 -0.15500 531.2 40.6 0.0 0.0 0.00000 -1.26125 -0.17498 -41.80041 -0.275 
12649.46 2 0 100.00000 -0.57500 0.09000 0.00000 530.9 -0.7 0.0 0.0 0.00000 -1.20657 -0.02567 -3.23791 -0.216 
12674.43 2 0 100.00000 -0.57500 0.09000 0.00000 530.8 -32.7 0.0 0.0 0.00000 -1.23681 -0.22871 -2.42542 -0.190 
12699.47 2 0 100.00000 -0.69000 0.09000 0.00000 530.5 50.1 0.0 0.0 0.00000 -1.23979 -0.18632 -31.05041 -0.111 
12724.42 2 0 100.00000 -0.69000 0.09000 0.00000 530.3 -13.3 0.0 0.0 0.00000 -1.12734 -0.29833 17.88709 -0.082 
12749.46 2 0 100.00000 -0.57500 0.09000 0.00000 530.3 -50.8 0.0 0.0 0.00000 -1.14245 -0.36124 18.32458 -0.061 
12774.46 2 0 100.00000 -0.57500 0.09000 0.00000 530.1 60.8 0.0 0.0 0.00000 -1.16415 -0.39476 6.63709 -0.019 
12799.46 2 0 100.00000 -0.57500 0.09000 0.00000 529.7 -25.3 0.0 0.0 0.00000 -1.06384 -0.30468 8.07459 0.070 
12824.44 2 0 100.00000 -0.57500 0.09000 0.00000 529.6 2.6 0.0 0.0 0.00000 -1.15980 -0.40715 11.44959 0.097 
12849.44 2 0 100.00000 -0.69000 0.09000 0.00000 529.5 60.0 0.0 0.0 0.00000 -1.14660 -0.35175 -28.92541 0.113 
12874.44 2 0 100.00000 -0.57500 0.09000 0.00000 529.2 -27.8 0.0 0.0 0.00000 -1.07629 -0.29606 10.76208 0.193 
12899.45 2 0 100.00000 -0.34500 0.09000 0.00000 528.9 6.2 0.0 0.0 0.00000 -1.11817 -0.43034 -7.23791 0.269 
12924.42 2 0 100.00000 -0.57500 0.09000 0.00000 528.7 39.8 0.0 0.0 0.00000 -1.04038 -0.25588 -38.11291 0.299 
12949.43 2 0 100.00000 -2.07000 0.07500 0.00000 528.7 -86.9 0.0 0.0 0.00000 -0.89708 -0.40514 55.94958 0.312 
12974.47 2 0 100.00000 -14.72000 0.09000 0.00000 528.9 -89.4 0.0 0.0 0.00000 -0.93760 -0.44190 -49.73791 0.257 
12999.43 2 0 100.00000 -20.00000 0.09000 0.00000 528.7 -175.4 0.0 0.0 0.00000 -0.90702 -0.25608 45.38709 0.300 
13024.42 2 0 100.00000 -20.00000 0.09000 0.00000 528.9 -172.4 0.0 0.0 0.00000 -1.17682 -0.58377 -5.67541 0.272 
13049.44 2 0 100.00000 -20.00000 0.09000 0.00000 529.4 -62.6 0.0 0.0 0.00000 -1.52726 -0.55431 2.57460 0.152 
13074.45 2 0 100.00000 -20.00000 0.09000 0.00000 529.4 -143.5 0.0 0.0 0.00000 -1.99371 -0.66739 41.07459 0.145 
13099.44 2 0 100.00000 -20.00000 0.09000 0.00000 529.1 -23.6 0.0 0.0 0.00000 -2.75537 -0.56100 17.88710 0.213 
13124.44 2 0 100.00000 -20.00000 0.09000 0.00000 529.3 -23.8 0.0 0.0 0.00000 -3.75313 -0.57237 -13.30040 0.175 
13149.43 2 0 100.00000 -20.00000 0.09000 0.00000 529.3 -12.0 0.0 0.0 0.00000 -4.86255 -0.52786 -32.36290 0.177 
13174.47 2 0 100.00000 -20.00000 0.09000 -0.15500 529.3 71.4 0.0 0.0 0.00000 -6.17123 -0.66742 17.38711 0.175 
13199.43 2 0 100.00000 -20.00000 0.09000 0.00000 529.5 59.6 0.0 0.0 0.00000 -7.39120 -0.96576 49.63711 0.112 
13224.42 2 0 100.00000 -20.00000 0.09000 0.00000 529.5 64.4 0.0 0.0 0.00000 -8.71829 -0.83877 -21.17539 0.126 
13249.45 2 0 100.00000 -20.00000 0.09000 0.00000 529.7 38.3 0.0 0.0 0.00000 -9.97174 -0.55980 12.94960 0.073 
13274.44 2 0 100.00000 -20.00000 0.09000 0.00000 529.6 19.3 0.0 0.0 0.00000 -11.27482 -0.51076 24.51210 0.106 
13299.43 2 0 100.00000 -20.00000 0.09000 0.00000 529.9 123.0 0.0 0.0 0.00000 -12.41718 -0.66136 -5.36289 0.027 
13324.43 2 0 100.00000 -20.00000 0.09000 0.00000 530.1 30.5 0.0 0.0 0.00000 -13.37437 -0.74818 -22.86290 -0.020 
13349.43 2 0 100.00000 -20.00000 0.09000 0.00000 530.3 25.5 0.0 0.0 0.00000 -14.25326 -0.76164 6.07460 -0.066 
13374.45 2 0 100.00000 -20.00000 0.09000 0.00000 530.4 27.0 0.0 0.0 0.00000 -15.00220 -0.70893 14.26210 -0.102 
13399.43 2 0 100.00000 -20.00000 0.07500 0.00000 530.6 21.5 0.0 0.0 0.00000 -15.49551 -0.65653 14.19960 -0.149 
13424.47 2 0 100.00000 -20.00000 0.09000 0.00000 531.2 -25.5 0.0 0.0 0.00000 -15.83544 -0.55883 -3.30041 -0.293 
13449.44 2 0 100.00000 -20.00000 0.09000 0.00000 531.5 -17.0 0.0 0.0 0.00000 -16.15662 -0.58417 20.01209 -0.350 
13474.44 2 0 100.00000 -20.00000 0.09000 0.00000 531.6 -18.5 0.0 0.0 0.00000 -16.26144 -0.76184 6.07459 -0.388 
13499.45 2 0 100.00000 -20.00000 0.09000 0.00000 532.2 -45.7 0.0 0.0 0.00000 -16.34441 -0.66667 -9.42541 -0.513 
13524.27 2 0 100.00000 -20.00000 0.09000 -0.15500 532.2 -2.5 0.0 0.0 0.00000 -16.37619 -0.73268 11.32459 -0.514 
13549.47 2 0 100.00000 -20.00000 0.09000 0.00000 532.7 -34.5 0.0 0.0 0.00000 -16.33698 -0.72422 3.13709 -0.633 
13574.45 2 0 100.00000 -20.00000 0.07500 0.00000 533.1 -27.9 0.0 0.0 0.00000 -16.44694 -0.64553 -2.36291 -0.738 
